緯度,経度,店名,紹介文,住所,電話番号,営業時間,テイクアウト営業時間,ジャンル,価格帯,支払い方法,Instagram,Twitter,公式サイト
33.483795,135.783559,M's cafe & dining,チキンカレーとお弁当販売しております。　お電話でご予約くださいませ。,和歌山県東牟婁郡串本町サンゴ台1107-10,0735-67-7190,11:00 - 16:00  /  11:00 - 14:00 / 18:30 - (現在はコロナ収束まで予約のみの営業),, イタリアン、創作居酒屋、cafe,"昼 400円〜1,200円  夜 1,000円〜4,000円", 現金、クレジットカード、PayPay,mscafeanddining,,
33.484055,135.789384,Sea side bal Nansea's,当店人気のピザとパスタなどがテクアウト可能です。是非おこしくださいませ。　,和歌山東牟婁郡串本町くじの川1293-7,0735-67-7744,11:30 - 14:00 / 17:00 - 21:00 (ラストオーダーは30分前まで),11:30 - 14:00 / 17:00 - 21:00 (ラストオーダーは30分前まで),イタリアン,1000～,現金、各種カード、paypay可,nanseas_kushimoto,,
33.475598,135.783387,タイヨウのカフェ,ケバブライス　トルコのピザ「ピデ」も人気です。　オードブルもご予約可能です。,和歌山県東牟婁郡串本町2079-2,070 3317 4075,10:00 - 19:00 ,10:00-19:00,ブックカフェ,800-1000,現金、エアペイ取扱い各種,taiyocafe,nazar_kcr,http://kcrjp.com/taiyocafe/
33.484538,135.790345,ビーチハウス・ラパン,お弁当500円　配達も致します。　前日までにご予約くださいませ。,和歌山県東牟婁郡串本町くじの川1597,090-3356-8305,9:00 - 17:00,前日予約　,お弁当,500円～800円,現金/PayPay,,,http://cafe-lapin-2014.sakura.ne.jp/
33.484878,135.790012,焼肉 蓮,焼肉連のお肉がお弁当になりました。　,和歌山県東牟婁郡串本町くじの川1294-2,0735-62-5084,11:30 - 14:00 17:00 - 21:30 （ラストオーダーは30分前まで）,,焼肉店,昼1100円〜1500円,現金のみ,mkplanningco,,
33.469669,135.778833,手作り弁当　銀座屋,いつも日替わりでお弁当販売しております。　朝から,和歌山県東牟婁郡串本町串本８９１-3,080-1509-4667　（要予約）,9:00 - 15:00,9:00-15:00,お弁当　お惣菜,550円～,現金,,,
33.518221,135.826801,弁当たちばな,お弁当500円　オードブルもご予約可能です。　お電話で予約してくださいね。,和歌山県東牟婁郡串本町古座113,090-9881-3960　（要予約）,10:00 - 15:00,前日予約,お弁当　オードブル,弁当500円　　オードブル3000円～,現金,,,
